City_ID,City,Lat,Lng,Max Temp,Humidity,Cloudiness,Wind Speed,Country,Date
0,cassino,41.4876,13.8315,9.18,76,72,1.34,IT,1704767719
1,puerto natales,-51.7236,-72.4875,4.54,90,100,4.18,CL,1704767486
2,valparaiso,-33.0393,-71.6273,16.8,59,0,3.09,CL,1704767720
3,argo,37.6333,22.7333,9.32,80,100,1.68,GR,1704767720
4,anadyr,64.75,177.4833,-18.72,77,75,11.0,RU,1704767720
5,rongelap,11.1635,166.8941,26.87,75,98,7.89,MH,1704767721
6,broken hill,-31.95,141.4333,27.16,42,0,1.99,AU,1704767721
7,jamestown,42.097,-79.2353,2.77,93,100,3.09,US,1704767672
8,qarchi gak,37.04,66.7889,6.23,80,18,7.68,AF,1704767721
9,hamilton,39.1834,-84.5333,3.76,75,40,5.66,US,1704767603
10,georgetown,5.4112,100.3354,29.41,89,20,1.03,MY,1704767722
11,khandyga,62.6667,135.6,-43.18,99,99,0.52,RU,1704767722
12,ribeira grande,38.5167,-28.7,16.54,90,100,8.94,PT,1704767723
13,belyy yar,53.6039,91.3903,-14.06,85,100,0.0,RU,1704767723
14,ola,59.5833,151.2833,-22.06,77,100,1.72,RU,1704767598
15,edinburgh of the seven seas,-37.0676,-12.3116,18.34,97,100,11.48,SH,1704767724
16,ouargla,31.9493,5.325,6.04,49,0,1.54,DZ,1704767724
17,invercargill,-46.4,168.35,17.23,81,100,3.13,NZ,1704767724
18,coari,-4.085,-63.1414,24.93,85,100,1.6,BR,1704767725
19,san antonio de pale,-1.4014,5.6325,27.11,80,47,3.54,GQ,1704767725
20,port elizabeth,-33.918,25.5701,19.62,91,20,1.54,ZA,1704767725
21,blackmans bay,-43.0167,147.3167,21.96,54,0,1.34,AU,1704767725
22,huarmey,-10.0681,-78.1522,22.78,82,100,3.9,PE,1704767726
23,port-aux-francais,-49.35,70.2167,4.81,74,88,9.14,TF,1704767725
24,gornopravdinsk,60.05,69.9,-19.54,95,100,4.25,RU,1704767726
25,margaret river,-33.95,115.0667,22.4,54,3,7.42,AU,1704767433
26,celestun,20.8667,-90.4,26.53,59,72,6.63,MX,1704767727
27,weno,7.4515,151.8468,29.97,70,100,4.63,FM,1704767727
28,lompoc,34.6391,-120.4579,11.55,69,0,4.12,US,1704767727
29,dori,14.0354,-0.0345,22.2,15,1,3.51,BF,1704767728
30,fuman,37.2273,49.3142,15.1,27,100,5.36,IR,1704767728
31,olonkinbyen,70.9221,-8.7187,-1.72,96,100,5.28,SJ,1704767728
32,albany,42.6001,-73.9662,-0.2,89,89,1.34,US,1704767576
33,bethel,41.3712,-73.414,-0.19,81,0,1.54,US,1704767729
34,beeville,28.4008,-97.7483,18.12,12,75,10.29,US,1704767729
35,mossel bay,-34.1831,22.146,16.96,91,18,2.87,ZA,1704767729
36,huadian,42.9633,126.7478,-9.14,84,67,3.0,CN,1704767513
37,ilulissat,69.2167,-51.1,-6.99,63,100,12.35,GL,1704767730
38,saipan,15.1355,145.701,30.39,70,20,7.72,MP,1704767730
39,zhaoyuan,37.3592,120.3964,2.46,54,100,2.36,CN,1704767674
40,adamstown,-25.066,-130.1015,24.12,86,100,5.03,PN,1704767663
41,carloforte,39.145,8.3058,11.64,58,95,11.56,IT,1704767731
42,kaedi,16.1465,-13.5047,24.16,11,53,4.59,MR,1704767731
43,punta arenas,-53.15,-70.9167,6.06,70,40,11.32,CL,1704767532
44,waitangi,-43.9535,-176.5597,17.68,92,100,8.57,NZ,1704767732
45,papao,-17.75,-149.55,30.82,84,19,7.63,PF,1704767732
46,huntsville,34.7304,-86.5861,10.0,80,100,10.28,US,1704767624
47,camana,-16.6228,-72.7111,22.11,90,100,2.89,PE,1704767732
48,riberalta,-10.9833,-66.1,26.01,77,100,0.97,BO,1704767733
49,woolgoolga,-30.1106,153.2007,30.02,72,85,6.9,AU,1704767733
50,dudinka,69.4058,86.1778,-18.51,80,100,3.58,RU,1704767694
51,tiksi,71.6872,128.8694,-33.58,95,100,5.2,RU,1704767734
52,sorong,-0.8833,131.25,29.46,73,62,6.08,ID,1704767734
53,bilibino,68.0546,166.4372,-30.71,96,100,1.31,RU,1704767734
54,new norfolk,-42.7826,147.0587,22.62,28,0,1.39,AU,1704767735
55,mount gambier,-37.8333,140.7667,25.32,49,27,2.61,AU,1704767735
56,casarza ligure,44.2719,9.447,9.32,83,23,3.81,IT,1704767735
57,yellowknife,62.456,-114.3525,-34.69,68,75,2.57,CA,1704767736
58,carnarvon,-24.8667,113.6333,26.53,58,0,7.54,AU,1704767736
59,hawaiian paradise park,19.5933,-154.9731,27.73,76,40,8.23,US,1704767736
60,zuyevka,58.405,51.1335,-14.88,94,100,4.1,RU,1704767736
61,wailua homesteads,22.0669,-159.378,22.44,86,75,4.63,US,1704767737
62,paraiso,9.8383,-83.8656,19.48,93,80,1.82,CR,1704767737
63,pueblo nuevo,23.3833,-105.3833,5.09,94,66,1.12,MX,1704767737
64,trashi yangtse,27.6116,91.498,12.17,49,4,1.32,BT,1704767738
65,xai-xai,-25.0519,33.6442,22.6,90,5,0.31,MZ,1704767738
66,vila franca do campo,37.7167,-25.4333,18.27,99,95,3.59,PT,1704767738
67,mildura,-34.2,142.15,26.71,61,3,2.44,AU,1704767225
68,karratha,-20.7377,116.8463,38.25,20,2,5.49,AU,1704767739
69,soio,-6.1349,12.3689,25.64,80,90,1.56,AO,1704767739
70,lae,-6.7221,146.9847,31.12,66,100,5.17,PG,1704767739
71,bredasdorp,-34.5322,20.0403,16.6,93,15,2.02,ZA,1704767739
72,badger,64.8,-147.5333,-10.86,83,75,2.06,US,1704767740
73,portland,45.5234,-122.6762,10.25,93,100,6.26,US,1704767281
74,sechura,-5.5569,-80.8222,24.74,67,97,6.1,PE,1704767740
75,ylitornio,66.3089,23.6773,2.01,85,81,4.44,FI,1704767740
76,enewetak,11.3474,162.3373,27.23,75,99,8.58,MH,1704767741
77,bandarbeyla,9.4942,50.8122,22.35,68,62,8.36,SO,1704767741
78,dubbo,-32.25,148.6167,30.07,62,40,4.12,AU,1704767741
79,arraial do cabo,-22.9661,-42.0278,25.98,83,0,5.66,BR,1704767741
80,altay,47.8667,88.1167,-3.47,97,100,1.26,CN,1704767742
81,touros,-5.1989,-35.4608,26.87,77,13,3.86,BR,1704767742
82,vorgashor,67.5833,63.95,-28.82,100,98,2.12,RU,1704767742
83,kavaratti,10.5669,72.642,27.51,75,100,2.47,IN,1704767742
84,labrador city,52.9463,-66.9114,-16.05,72,75,5.14,CA,1704767743
85,talnakh,69.4865,88.3972,-20.55,84,100,1.97,RU,1704767743
86,lincoln city,44.9582,-124.0179,12.42,98,100,9.39,US,1704767743
87,college,64.8569,-147.8028,-10.82,82,75,2.06,US,1704767744
88,port mathurin,-19.6833,63.4167,27.62,65,4,1.27,MU,1704767744
89,iqaluit,63.7506,-68.5145,-24.06,69,0,9.26,CA,1704767744
90,tindouf,27.6711,-8.1474,11.25,35,64,2.57,DZ,1704767744
91,galliano,29.4422,-90.2992,23.0,88,100,7.2,US,1704767745
92,powell river,49.8496,-124.5361,4.0,100,100,7.72,CA,1704767745
93,avarua,-21.2078,-159.775,27.03,83,75,6.69,CK,1704767745
94,inhambane,-23.865,35.3833,23.65,89,2,1.82,MZ,1704767746
95,grytviken,-54.2811,-36.5092,4.1,87,73,0.91,GS,1704767746
96,ancud,-41.8697,-73.8203,10.91,73,27,2.62,CL,1704767512
97,illushi,6.6667,6.6308,24.44,85,3,1.56,NG,1704767747
98,pariaman,-0.619,100.12,28.03,81,89,2.18,ID,1704767747
99,taseyevo,57.2169,94.8978,0.19,74,52,5.36,RU,1704767747
100,lazaro cardenas,17.9583,-102.2,24.43,81,17,1.61,MX,1704767469
101,malvik,63.4333,10.6833,3.61,93,100,9.28,NO,1704767748
102,ocean city,39.2776,-74.5746,4.99,79,7,0.66,US,1704767748
103,isafjordur,66.0755,-23.124,4.99,91,100,5.7,IS,1704767749
104,sur,22.5667,59.5289,21.16,44,0,4.68,OM,1704767749
105,longyearbyen,78.2186,15.6401,-13.09,85,75,7.2,SJ,1704767749
106,sisimiut,66.9395,-53.6735,-10.2,64,100,5.1,GL,1704767749
107,guerrero negro,27.9769,-114.0611,13.87,31,8,7.03,MX,1704767750
108,flin flon,54.7682,-101.865,-18.27,97,100,1.35,CA,1704767750
109,thompson,55.7435,-97.8558,-27.91,76,100,1.54,CA,1704767750
110,tokmak,47.2514,35.7058,-7.74,80,99,7.55,UA,1704767751
111,lerwick,60.1545,-1.1494,5.0,75,100,0.69,GB,1704767751
112,horsens,55.8607,9.8503,-6.79,92,12,1.89,DK,1704767751
113,mournies,35.4764,24.0092,12.22,94,75,3.6,GR,1704767751
114,kone,-21.0595,164.8658,29.13,65,97,2.9,NC,1704767752
115,grand falls-windsor,48.9332,-55.6649,-4.72,79,100,2.24,CA,1704767752
116,remire-montjoly,4.9167,-52.2667,26.02,94,20,1.03,GF,1704767752
117,qujing,25.4833,103.7833,11.71,44,0,1.58,CN,1704767752
118,ghat,24.9647,10.1728,10.88,30,0,2.47,LY,1704767753
119,atafu village,-8.5421,-172.5159,29.37,70,5,4.24,TK,1704767524
120,stanley,54.868,-1.6985,2.65,73,75,3.6,GB,1704767753
121,luderitz,-26.6481,15.1594,15.53,88,51,6.95,NA,1704767754
122,porto novo,6.4965,2.6036,25.83,88,2,2.0,BJ,1704767754
123,hadibu,12.65,54.0333,23.77,73,66,8.18,YE,1704767754
124,horta,38.5333,-28.6333,16.12,90,100,8.94,PT,1704767754
125,sukhodol,53.9006,51.2117,-25.15,100,100,2.32,RU,1704767755
126,timmins,48.4669,-81.3331,-19.1,84,40,1.54,CA,1704767755
127,pointe-noire,-4.7761,11.8635,26.04,94,40,1.03,CG,1704767755
128,noumea,-22.2763,166.4572,30.99,70,82,1.34,NC,1704767391
129,al wafrah,28.6392,47.9306,11.45,32,6,3.22,KW,1704767755
130,thunder bay,48.4001,-89.3168,-7.01,93,100,6.17,CA,1704767756
131,peruibe,-24.32,-46.9983,25.58,76,2,2.15,BR,1704767756
132,qashar,53.3906,62.9297,-31.12,93,41,2.88,KZ,1704767756
133,coyhaique,-45.5752,-72.0662,9.97,71,100,1.54,CL,1704767757
134,mu'minobod,38.1085,70.0285,-0.65,35,8,3.43,TJ,1704767757
135,ushuaia,-54.8,-68.3,4.81,81,40,11.83,AR,1704767757
136,kenora,49.8167,-94.4337,-10.46,85,100,3.6,CA,1704767757
137,la passe,45.5549,-0.8967,0.13,76,12,4.3,FR,1704767758
138,puerto baquerizo moreno,-0.9,-89.6,24.25,89,100,5.55,EC,1704767758
139,moanda,-1.5575,13.2178,21.88,95,100,0.49,GA,1704767758
140,klyuchi,52.2667,79.1667,-13.62,82,72,7.93,RU,1704767759
141,kodiak,57.79,-152.4072,1.73,69,75,4.12,US,1704767759
142,petropavlovsk-kamchatsky,53.0452,158.6483,-16.67,60,40,4.0,RU,1704767759
143,ad dabbah,18.05,30.95,21.21,51,85,3.82,SD,1704767760
144,zhangjiakou,40.81,114.8794,-6.88,63,31,3.33,CN,1704767760
145,hammerfest,70.6634,23.6821,0.25,100,100,3.09,NO,1704767760
146,yevlakh,40.6183,47.1501,10.17,40,0,2.89,AZ,1704767760
147,anaco,9.4389,-64.4728,24.11,71,30,2.32,VE,1704767761
148,aasiaat,68.7098,-52.8699,-15.43,87,100,1.69,GL,1704767761
149,anna regina,7.2644,-58.5077,25.62,77,83,3.58,GY,1704767761
150,geraldton,-28.7667,114.6,25.23,61,75,8.75,AU,1704767761
151,whitehorse,60.7161,-135.0538,-16.57,84,0,2.06,CA,1704767762
152,tukrah,32.5341,20.5791,14.12,61,64,10.49,LY,1704767762
153,malindi,-3.2175,40.1191,26.13,81,77,4.86,KE,1704767762
154,zeya,53.75,127.2667,-20.29,66,1,2.69,RU,1704767763
155,svetlogorsk,52.6333,29.7333,-14.1,84,8,3.74,BY,1704767763
156,at taj,24.2049,23.2857,13.37,32,70,2.38,LY,1704767763
157,st. john's,47.5649,-52.7093,-1.58,90,100,11.32,CA,1704767742
158,atmakur,15.8833,78.5833,22.43,73,88,3.09,IN,1704767764
159,kampong thom,12.7111,104.8887,30.07,50,12,1.95,KH,1704767765
160,san pedro,14.35,121.0167,29.08,82,75,3.09,PH,1704767488
161,kita,13.0349,-9.4895,22.04,17,8,1.61,ML,1704767765
162,mata-utu,-13.2816,-176.1745,28.72,74,65,1.53,WF,1704767766
163,codrington,-38.2667,141.9667,19.08,78,89,4.26,AU,1704767766
164,begamganj,23.6,78.3333,19.34,64,0,4.26,IN,1704767767
165,ta`u,-14.2336,-169.5144,28.14,75,79,2.71,AS,1704767767
166,tura,25.5198,90.2201,18.91,51,0,1.12,IN,1704767768
167,laguna,38.421,-121.4238,9.5,64,0,2.57,US,1704767550
168,paulo afonso,-9.4061,-38.2147,24.83,77,50,3.77,BR,1704767500
169,gannan,47.9147,123.5031,-15.2,70,4,2.51,CN,1704767768
170,gebeit,21.0667,36.3167,18.23,60,41,2.53,SD,1704767769
171,newman,37.3138,-121.0208,9.05,68,16,0.89,US,1704767658
172,howard springs,-12.497,131.047,29.99,86,80,3.06,AU,1704767769
173,buka,40.8108,69.1986,6.93,67,100,0.95,UZ,1704767771
174,newport,51.5877,-2.9984,2.3,74,100,8.35,GB,1704767465
175,ketchikan,55.3422,-131.6461,2.99,93,100,3.09,US,1704767771
176,pemangkat,1.1667,108.9667,28.05,73,89,1.01,ID,1704767772
177,morciano di romagna,43.9141,12.6506,7.23,71,20,3.6,IT,1704767772
178,happy valley-goose bay,53.3168,-60.3315,-15.83,51,20,8.75,CA,1704767772
179,cabedelo,-6.9811,-34.8339,27.37,78,61,4.4,BR,1704767773
180,chela,34.069,104.4619,1.44,41,4,1.1,CN,1704767773
181,sao joao da barra,-21.6403,-41.0511,24.81,93,100,3.5,BR,1704767773
182,alupka,44.4167,34.05,8.03,92,98,1.3,UA,1704767774
183,kargasok,59.0556,80.8572,-14.46,93,100,6.71,RU,1704767538
184,tutong,4.8,114.65,29.05,75,99,1.15,BN,1704767774
185,nova sintra,14.8667,-24.7167,21.28,68,100,6.17,CV,1704767774
186,san ignacio de velasco,-16.3667,-60.95,27.02,67,99,1.62,BO,1704767775
187,westport,41.1415,-73.3579,1.87,81,0,0.89,US,1704767759
188,afaahiti,-17.75,-149.2833,29.93,84,45,6.7,PF,1704767775
189,vilyuchinsk,52.9306,158.4028,-15.85,79,39,1.75,RU,1704767775
190,al jawf,29.5,38.75,15.85,48,100,4.69,SA,1704767776
191,talcahuano,-36.7167,-73.1167,15.82,55,0,7.2,CL,1704767776
192,puerto quijarro,-17.7833,-57.7667,28.56,63,99,1.22,BO,1704767776
193,varzea grande,-15.6467,-56.1325,28.93,74,40,4.63,BR,1704767777
194,mejit,10.2753,170.8646,27.06,76,86,9.51,MH,1704767777
195,kapuskasing,49.4169,-82.4331,-21.95,77,40,1.03,CA,1704767777
196,nova vicosa,-17.8919,-39.3719,24.79,89,99,3.47,BR,1704767690
197,la'ie,21.6477,-157.9253,23.98,93,36,8.48,US,1704767778
198,malangali,-8.5667,34.85,17.72,95,100,1.89,TZ,1704767778
199,watseka,40.7762,-87.7364,2.2,86,100,6.43,US,1704767778
200,el granada,37.5027,-122.4694,11.9,78,75,3.6,US,1704767502
201,qarqaraly,49.4058,75.4742,-16.58,84,43,4.36,KZ,1704767779
202,qaqortoq,60.7167,-46.0333,-0.83,77,80,4.05,GL,1704767779
203,zaragoza,41.6561,-0.8773,5.01,72,0,1.03,ES,1704767549
204,udachny,66.4167,112.4,-37.62,100,41,1.58,RU,1704767780
205,tsiombe,-25.3,45.4833,23.87,86,6,5.45,MG,1704767780
206,crane,31.3974,-102.3501,4.84,37,2,7.57,US,1704767781
207,tsaratanana,-16.7833,47.65,24.78,90,95,0.9,MG,1704767781
208,egilsstadir,65.2653,-14.3948,2.95,81,0,3.6,IS,1704767781
209,minas de marcona,-15.2119,-75.1103,18.3,82,100,3.79,PE,1704767782
210,kuragino,53.8975,92.6725,-7.36,91,100,1.89,RU,1704767600
211,nizhniy kuranakh,58.8353,125.4869,-25.04,94,100,1.89,RU,1704767782
212,hami,42.8,93.45,-4.16,55,0,2.02,CN,1704767782
213,fort bragg,35.139,-79.006,6.06,73,0,2.06,US,1704767783
214,ayabaca,-4.6398,-79.7149,11.08,89,100,0.95,PE,1704767783
215,swakopmund,-22.6833,14.5333,16.47,90,32,0.82,NA,1704767783
216,port saint john's,-31.6229,29.5448,21.35,87,100,0.85,ZA,1704767784
217,poddebice,51.8934,18.9573,-14.66,87,5,1.77,PL,1704767784
218,bubaque,11.2833,-15.8333,26.21,56,36,6.28,GW,1704767784
219,port alfred,-33.5906,26.891,18.43,97,53,1.33,ZA,1704767520
220,miyaly,48.8844,53.7836,-7.68,69,100,4.69,KZ,1704767785
221,axim,4.8699,-2.2405,26.82,84,20,3.11,GH,1704767785
222,tolanaro,-25.0319,46.9987,24.04,88,40,6.17,MG,1704767785
223,tazovsky,67.4667,78.7,-20.01,98,100,3.98,RU,1704767597
224,tegueste,28.5167,-16.3167,16.56,53,0,2.68,ES,1704767786
225,gao,16.6362,1.637,20.35,16,0,5.14,ML,1704767786
226,fraserburgh,57.6874,-2.0184,1.18,79,55,2.72,GB,1704767787
227,trenton,40.217,-74.7429,2.61,81,0,0.0,US,1704767742
228,bhiria,26.9107,68.1948,12.72,51,0,2.42,PK,1704767787
229,tarawa,1.419,172.984,27.05,94,75,2.06,KI,1704767787
230,lebu,-37.6167,-73.65,13.44,73,0,8.23,CL,1704767787
231,larkird,35.4894,66.6641,-1.32,53,1,4.4,AF,1704767788
232,san rafael del yuma,18.4299,-68.6739,25.76,81,2,4.84,DO,1704767788
233,kayangel,8.0823,134.7173,28.78,71,61,9.03,PW,1704767788
234,chonchi,-42.6128,-73.8092,11.56,92,23,1.18,CL,1704767507
235,nar'yan-mar,67.6713,53.087,-24.38,100,94,2.24,RU,1704767597
236,sremska mitrovica,44.9764,19.6122,-2.27,86,100,2.53,RS,1704767789
237,queenstown,-31.8976,26.8753,15.61,93,100,1.21,ZA,1704767789
238,east london,-33.0153,27.9116,19.07,90,99,1.11,ZA,1704767789
239,teluk nibung,3.001,99.8164,26.93,86,47,1.0,ID,1704767790
240,hithadhoo,-0.6,73.0833,28.2,75,20,4.62,MV,1704767790
241,buala,-8.145,159.5921,29.52,76,95,2.05,SB,1704767790
242,novobelokatay,55.7062,58.9549,-29.77,100,66,2.02,RU,1704767791
243,yantzaza,-3.8278,-78.7594,21.45,99,100,0.42,EC,1704767791
244,canutama,-6.5339,-64.3831,24.95,87,99,1.2,BR,1704767791
245,muli,2.9167,73.5667,27.38,79,98,4.73,MV,1704767792
246,akureyri,65.6835,-18.0878,6.96,65,8,7.2,IS,1704767792
247,kuala belait,4.5833,114.1833,30.09,68,100,0.6,BN,1704767793
248,grootfontein,-19.5667,18.1167,18.76,100,100,1.03,NA,1704767793
249,zouerate,22.7187,-12.4521,17.26,32,96,3.12,MR,1704767793
250,pizarro,4.9533,-77.366,25.6,91,95,2.54,CO,1704767794
251,punta del este,-34.9667,-54.95,21.6,86,0,3.09,UY,1704767794
252,okha,53.5739,142.9478,-23.39,88,8,4.64,RU,1704767794
253,aripuana,-9.1667,-60.6333,23.41,98,97,0.28,BR,1704767795
254,olds,51.7834,-114.102,-8.42,72,88,1.54,CA,1704767795
255,beloyarskiy,63.7119,66.6722,-30.56,100,83,1.79,RU,1704767795
256,labytnangi,66.6572,66.4183,-30.16,95,63,1.75,RU,1704767796
257,hermanus,-34.4187,19.2345,17.1,88,11,4.1,ZA,1704767796
258,puerto ayora,-0.7393,-90.3518,25.31,96,88,2.24,EC,1704767797
259,kamaishi,39.2667,141.8833,6.23,57,49,6.94,JP,1704767797
260,acajutla,13.5928,-89.8275,24.74,76,0,3.49,SV,1704767797
261,sysert',56.4953,60.8192,-21.51,89,80,5.31,RU,1704767730
262,comodoro rivadavia,-45.8667,-67.5,16.92,31,0,14.92,AR,1704767798
263,hasaki,35.7333,140.8333,10.16,44,4,4.52,JP,1704767798
264,sikasso,10.9167,-7.0,23.53,20,0,1.95,ML,1704767644
265,kochubey,44.3861,46.5825,1.64,93,97,2.54,RU,1704767798
266,gwadar,25.1216,62.3254,19.23,31,0,3.46,PK,1704767799
267,rabaul,-4.1967,152.1721,29.43,72,97,3.72,PG,1704767799
268,ormond-by-the-sea,29.3491,-81.0665,19.49,81,100,3.6,US,1704767799
269,pampa del indio,-26.0647,-59.919,30.63,57,63,3.66,AR,1704767800
270,cold lake,54.4502,-110.2017,-18.03,92,100,2.06,CA,1704767800
271,salinas,36.6777,-121.6555,10.46,72,0,0.45,US,1704767800
272,serzedo,41.405,-8.2293,7.39,92,100,4.47,PT,1704767800
273,port lincoln,-34.7333,135.8667,21.17,61,4,3.55,AU,1704767801
274,saldanha,-33.0117,17.9442,15.03,88,1,4.62,ZA,1704767801
275,hilo,19.7297,-155.09,27.85,70,40,8.23,US,1704767523
276,chongwe,-15.3292,28.682,18.3,98,82,0.72,ZM,1704767801
277,tucumcari,35.1717,-103.725,-1.14,59,0,7.2,US,1704767802
278,faya-largeau,17.9257,19.1043,18.2,14,66,5.68,TD,1704767802
279,derzhavinsk,51.1,66.3167,-28.17,99,29,1.69,KZ,1704767802
280,mao,39.8885,4.2658,5.31,93,0,3.09,ES,1704767803
281,swift current,50.2834,-107.8014,-14.55,85,0,7.72,CA,1704767803
282,kiunga,-6.1219,141.2906,34.93,50,98,0.76,PG,1704767803
283,riohacha,11.5444,-72.9072,26.17,76,9,6.24,CO,1704767744
284,mil'kovo,55.6078,37.7956,-9.27,92,99,4.98,RU,1704767803
285,sao vicente,-23.9631,-46.3919,28.48,26,0,2.63,BR,1704767804
286,saint-philippe,-21.3585,55.7679,23.77,80,73,3.73,RE,1704767804
287,tinghir,31.5157,-5.5343,8.09,36,71,1.18,MA,1704767805
288,west island,-12.1568,96.8225,28.99,79,7,7.72,CC,1704767805
289,tommot,58.9564,126.2925,-25.19,94,100,1.62,RU,1704767805
290,holualoa,19.6228,-155.9522,25.05,80,75,11.32,US,1704767806
291,sarangani,5.4033,125.4636,28.08,78,55,9.12,PH,1704767806
292,san luis de la loma,17.2706,-100.8939,24.23,78,3,1.6,MX,1704767806
293,caleta olivia,-46.4393,-67.5281,17.29,32,100,9.66,AR,1704767554
294,villarrica,-25.75,-56.4333,27.52,72,28,2.7,PY,1704767806
295,neryungri,56.6709,124.6491,-24.58,94,100,2.37,RU,1704767807
296,barras,-4.2444,-42.2944,23.85,88,52,1.81,BR,1704767807
297,manacapuru,-3.2997,-60.6206,25.44,89,98,1.66,BR,1704767706
298,leava,-14.3,-178.1667,29.05,75,64,3.24,WF,1704767807
299,sinabang,2.4803,96.3801,26.66,84,83,1.58,ID,1704767808
300,vadso,70.0744,29.7487,-4.91,86,75,4.12,NO,1704767808
301,cabo san lucas,22.8909,-109.9124,20.98,58,75,2.24,MX,1704767522
302,turkmenbasy,40.0222,52.9552,8.43,87,75,3.09,TM,1704767808
303,cambria,35.5641,-121.0808,10.59,67,13,2.24,US,1704767809
304,vorkuta,67.5,64.0,-28.54,100,98,2.05,RU,1704767809
305,rio grande,-32.035,-52.0986,21.08,85,64,2.18,BR,1704767809
306,arawa,-6.2132,155.5367,29.78,77,73,1.74,PG,1704767810
307,laghouat,33.8,2.8651,5.4,38,48,1.95,DZ,1704767810
308,three points,32.0767,-111.3137,5.34,36,0,2.06,US,1704767810
309,sitka,57.0531,-135.33,1.94,87,0,2.57,US,1704767810
310,seydi,39.4816,62.9137,9.1,59,100,10.4,TM,1704767811
311,keflavik,64.0049,-22.5624,7.95,93,100,15.95,IS,1704767811
312,burang,30.25,81.1667,-8.02,22,0,2.73,CN,1704767811
313,mahina,-17.5065,-149.489,30.87,70,40,5.14,PF,1704767812
314,santa maria,-29.6842,-53.8069,20.61,88,0,1.54,BR,1704767765
315,la ronge,55.1001,-105.2842,-18.86,78,100,1.54,CA,1704767812
316,lihue,21.9789,-159.3672,22.77,87,75,4.63,US,1704767812
317,aykhal,66.0,111.5,-30.66,100,21,1.55,RU,1704767813
318,dame-marie,18.5667,-74.4167,24.36,81,18,2.62,HT,1704767813
319,pasuquin,18.3328,120.6177,30.97,58,20,1.54,PH,1704767813
320,constantia,44.1833,28.65,-5.62,81,100,10.12,RO,1704767813
321,magnolia,33.2671,-93.2393,10.83,93,99,2.7,US,1704767814
322,jining,35.405,116.5814,4.08,76,51,2.5,CN,1704767305
323,mermoz boabab,14.7065,-17.4758,22.31,69,97,7.06,SN,1704767814
324,upington,-28.4478,21.2561,20.21,45,0,1.54,ZA,1704767814
325,banjarmasin,-3.3244,114.591,30.08,64,92,1.2,ID,1704767815
326,utrik,11.2278,169.8474,26.85,73,100,9.57,MH,1704767815
327,bahir dar,11.5936,37.3908,16.13,50,20,1.2,ET,1704767815
328,lichtenburg,-26.152,26.1597,17.8,78,97,4.05,ZA,1704767816
329,mpulungu,-8.7623,31.1141,22.15,86,100,0.6,ZM,1704767816
330,coquimbo,-29.9533,-71.3436,16.85,88,0,2.57,CL,1704767596
331,at taraf,25.3628,49.725,14.3,86,0,1.67,SA,1704767816
332,shahabad,27.65,79.95,12.8,55,1,1.14,IN,1704767817
333,gazli,40.1333,63.45,8.89,59,100,9.67,UZ,1704767817
334,namibe,-15.1961,12.1522,22.32,87,66,0.91,AO,1704767817
335,hassleholm,56.1591,13.7664,-4.12,96,22,2.09,SE,1704767818
336,okondja,-0.6549,13.6753,22.56,90,100,0.57,GA,1704767818
337,natal,-5.795,-35.2094,28.12,78,40,3.6,BR,1704767818
338,tual,-5.6667,132.75,29.33,75,60,6.31,ID,1704767818
339,konya,38.1667,32.5,3.71,89,82,3.27,TR,1704767819
340,trujillo,-8.116,-79.03,21.98,88,100,5.66,PE,1704767819
341,kourou,5.1552,-52.6478,26.03,94,54,2.62,GF,1704767819
342,netrakona,24.8833,90.7167,18.63,56,0,1.83,BD,1704767819
343,lugazi,0.3772,32.9197,18.06,81,92,0.38,UG,1704767820
344,katav-ivanovsk,54.7531,58.1956,-27.28,99,6,2.27,RU,1704767820
345,masterton,-40.9597,175.6575,25.34,40,49,3.19,NZ,1704767820
346,codroipo,45.96,12.9792,3.14,79,0,3.6,IT,1704767820
347,flying fish cove,-10.4217,105.6791,25.82,100,40,2.06,CX,1704767821
348,puerto deseado,-47.7503,-65.8938,16.93,33,99,6.77,AR,1704767821
349,shevchenko,48.5,35.0,-12.98,87,90,3.55,UA,1704767821
350,borkum,53.5809,6.6915,-0.03,75,6,8.96,DE,1704767821
351,teguise,29.0605,-13.564,15.12,72,0,2.57,ES,1704767822
352,tuburan,6.6439,122.2736,30.05,73,41,2.63,PH,1704767822
353,pembroke,45.8168,-77.1162,-8.77,97,93,0.61,CA,1704767822
354,carutapera,-1.195,-46.02,25.38,85,100,3.17,BR,1704767822
355,darwin,-12.4611,130.8418,30.03,89,75,3.09,AU,1704767823
356,chamical,-30.36,-66.314,24.45,73,57,1.33,AR,1704767823
357,yelizovo,53.1873,158.3805,-15.92,60,40,4.0,RU,1704767823
358,bardai,11.65,7.2333,16.69,13,9,4.09,NG,1704767824
359,paracuru,-3.41,-39.0306,28.39,83,72,3.25,BR,1704767824
360,oltinko'l,40.8011,72.1634,4.23,55,92,2.21,UZ,1704767824
361,bramming,55.4695,8.7001,-7.13,91,2,1.03,DK,1704767824
362,papatowai,-46.5619,169.4708,12.29,87,100,2.97,NZ,1704767825
363,williams lake,52.1415,-122.1445,-2.75,74,100,9.77,CA,1704767825
364,colonia,50.9333,6.95,-2.86,66,0,1.54,DE,1704767694
365,viqueque,-8.8673,126.3658,33.53,55,60,2.66,TL,1704767825
366,ash shihaniyah,25.3686,51.2264,17.79,76,0,3.13,QA,1704767826
367,dhidhdhoo,6.8833,73.1,27.16,77,99,3.8,MV,1704767826
368,uturoa,-16.7333,-151.4333,27.1,80,56,6.0,PF,1704767826
369,nuku'alofa,-21.1333,-175.2,30.19,79,75,3.09,TO,1704767826
370,kupang,-10.1667,123.5833,29.32,94,75,4.12,ID,1704767827
371,twon-brass,4.3151,6.2418,27.99,77,0,3.38,NG,1704767827
372,puerto cabezas,14.0351,-83.3888,24.82,88,4,3.6,NI,1704767827
373,east ballina,-28.8667,153.5833,24.92,88,100,5.06,AU,1704767828
374,mar del plata,-38.0023,-57.5575,19.49,88,75,3.13,AR,1704767828
375,bayt lahya,31.5464,34.4951,15.63,59,52,1.34,PS,1704767828
376,ust-nera,64.5667,143.2,-42.27,98,92,2.15,RU,1704767545
377,zhangye,38.9342,100.4517,1.24,17,0,2.01,CN,1704767829
378,lugoj,45.6886,21.9031,0.28,97,100,1.01,RO,1704767829
379,coeur d'alene,47.6777,-116.7805,0.45,92,100,1.54,US,1704767829
380,buckeye,33.3703,-112.5838,9.15,36,0,3.09,US,1704767698
381,touba,8.2833,-7.6833,22.36,38,0,1.76,CI,1704767830
382,guiuan,11.0333,125.7247,27.86,81,64,6.32,PH,1704767830
383,yuzhno-kurilsk,44.0306,145.8556,-4.79,67,99,7.51,RU,1704767831
384,mastic beach,40.7668,-72.8521,3.88,86,0,0.0,US,1704767831
385,gadzhiyevo,69.2551,33.3362,-8.86,91,100,2.37,RU,1704767831
386,prokop'yevsk,53.9059,86.719,-9.57,61,18,9.45,RU,1704767831
387,katiola,8.1333,-5.1,25.35,50,0,1.63,CI,1704767832
388,lagoa,39.05,-27.9833,16.33,83,90,8.87,PT,1704767832
389,tokar,18.4254,37.729,25.1,74,6,5.9,SD,1704767833
390,callao,-12.0667,-77.15,24.84,69,0,8.75,PE,1704767833
391,san patricio,28.017,-97.5169,18.42,18,0,9.86,US,1704767833
392,nikolayevsk-on-amure,53.1406,140.73,-20.66,75,8,2.54,RU,1704767833
393,fale old settlement,-9.3852,-171.2468,29.37,71,3,4.15,TK,1704767834
394,gulma,12.6423,4.3555,20.01,15,0,4.09,NG,1704767834
395,nagqu,31.5,92.0,-11.57,34,0,1.93,CN,1704767834
396,terbanggi besar,-4.8667,105.2333,26.5,81,100,2.18,ID,1704767834
397,paso de los toros,-32.8167,-56.5167,22.41,68,3,3.1,UY,1704767644
398,brookings,44.3114,-96.7984,-6.42,96,100,5.66,US,1704767625
399,behshahr,36.6923,53.5526,8.97,40,52,2.03,IR,1704767836
400,iskateley,67.6803,53.1512,-24.43,100,97,2.24,RU,1704767836
401,montecristo,8.2971,-74.4733,25.4,83,44,0.97,CO,1704767836
402,preobrazheniye,42.9019,133.9064,-4.06,47,3,4.38,RU,1704767837
403,quimili,-27.6333,-62.4167,26.73,72,85,5.74,AR,1704767837
404,burabay,53.0838,70.3138,-22.2,95,91,5.44,KZ,1704767837
405,santa clarita,34.3917,-118.5426,11.55,29,0,1.79,US,1704767698
406,qianjiang,30.4151,112.8859,11.91,62,61,1.88,CN,1704767838
407,purpe,64.4803,76.6897,-19.43,97,100,6.35,RU,1704767838
408,dryden,49.7833,-92.7503,-11.84,92,100,2.57,CA,1704767839
409,korsakov,46.6328,142.7813,-13.09,84,99,3.04,RU,1704767839
410,kokopo,-4.352,152.2633,30.09,68,97,3.48,PG,1704767839
411,marabba,12.35,32.1833,22.78,31,10,3.99,SD,1704767840
412,mugia,43.1041,-9.2179,8.82,81,100,1.86,ES,1704767840
413,coracora,-15.0333,-73.7833,12.82,77,100,0.57,PE,1704767840
414,jayapura,-2.5333,140.7,26.66,81,99,1.36,ID,1704767724
415,lagunas,-5.2269,-75.6753,23.45,97,100,1.65,PE,1704767841
416,prudentopolis,-25.2131,-50.9778,21.12,69,32,1.1,BR,1704767842
417,san agustin de valle fertil,-30.6335,-67.4682,22.91,78,68,2.28,AR,1704767842
418,kenai,60.5544,-151.2583,-3.81,97,100,4.12,US,1704767728
419,kani keli,-12.9536,45.1033,25.59,71,100,0.47,YT,1704767842
420,notse,6.95,1.1667,26.07,83,1,1.98,TG,1704767843
421,morehead city,34.7229,-76.726,7.0,76,20,4.63,US,1704767823
422,mishan,45.55,131.8833,-14.59,83,32,5.87,CN,1704767843
423,vallenar,-28.5708,-70.7581,20.88,47,0,1.58,CL,1704767844
424,el abiodh sidi cheikh,32.893,0.5484,7.28,17,63,1.39,DZ,1704767844
425,turbat,26.0023,63.044,14.92,32,0,3.75,PK,1704767844
426,morant bay,17.8815,-76.4093,27.79,84,71,4.71,JM,1704767845
427,tancacha,-32.2431,-63.9807,23.26,72,4,2.62,AR,1704767845
428,usogorsk,63.4106,48.6872,-12.96,95,99,4.66,RU,1704767845
429,tanumah,27.1,44.1333,13.38,41,6,2.87,SA,1704767845
430,tabora,-5.0167,32.8,19.28,91,100,1.09,TZ,1704767846
431,lesosibirsk,58.2358,92.4828,-4.49,80,66,6.4,RU,1704767546
432,ciudad bolivar,8.1222,-63.5497,26.9,66,51,5.47,VE,1704767704
433,zambezi,-13.5432,23.1047,18.08,97,100,1.97,ZM,1704767846
434,alice springs,-23.7,133.8833,32.75,25,81,3.67,AU,1704767822
435,praia da vitoria,38.7333,-27.0667,17.09,94,20,7.54,PT,1704767847
436,okhotsk,59.3833,143.3,-28.49,80,93,4.81,RU,1704767847
437,palmer,42.1584,-72.3287,-1.67,88,20,1.54,US,1704767847
438,tingo maria,-9.2895,-76.0088,21.39,96,99,0.91,PE,1704767848
439,camabatela,-8.1881,15.375,15.48,98,60,0.66,AO,1704767848
440,visconde do rio branco,-21.0103,-42.8406,23.52,88,100,1.99,BR,1704767848
441,nadym,65.5333,72.5167,-20.44,97,100,7.45,RU,1704767849
442,magistral'nyy,56.1725,107.4458,-19.24,88,100,3.01,RU,1704767849
443,varna,43.2167,27.9167,-5.92,79,100,3.6,BG,1704767849
444,martin,27.0837,-80.4164,23.32,85,100,7.84,US,1704767562
445,hauterive,46.0901,3.4459,-1.58,98,86,0.61,FR,1704767850
446,tromso,69.6496,18.957,4.01,87,75,6.69,NO,1704767850
447,gamba,-2.65,10.0,25.16,89,90,1.92,GA,1704767851
448,masvingo,-20.0637,30.8277,18.7,83,44,1.58,ZW,1704767602
449,alofi,-19.0595,-169.9187,28.94,70,75,3.09,NU,1704767851
450,berezovyy,51.6667,135.7,-21.87,70,100,0.58,RU,1704767852
451,kushiro,42.975,144.3747,-1.47,69,75,3.09,JP,1704767719
452,posse,-14.0931,-46.3694,20.16,94,100,0.79,BR,1704767852
453,eppingen,49.1369,8.9103,-4.77,58,19,5.18,DE,1704767853
454,northam,51.0333,-4.2167,1.88,82,29,6.61,GB,1704767853
455,wanning,18.8003,110.3967,24.1,80,78,3.92,CN,1704767854
456,bocanda,7.0626,-4.4995,24.51,88,0,2.18,CI,1704767854
457,zorgo,12.2489,-0.6158,23.53,14,0,4.0,BF,1704767855
458,lesnoy,57.6198,63.0784,-19.97,91,74,4.28,RU,1704767855
459,barkhan,29.8977,69.5256,5.35,73,0,1.91,PK,1704767855
460,yeniseysk,58.4497,92.1703,-4.47,72,66,7.6,RU,1704767856
461,tarakan,3.3,117.6333,29.72,84,20,2.06,ID,1704767856
462,tynda,55.1667,124.7167,-26.77,90,13,1.37,RU,1704767856
463,berezovo,63.9381,65.0419,-31.32,100,67,0.99,RU,1704767857
464,jagatsinghapur,20.2667,86.1667,18.2,60,0,2.6,IN,1704767857
465,christchurch,-43.5333,172.6333,24.74,47,79,9.26,NZ,1704767409
466,iitti,60.8949,26.3387,-2.78,94,72,3.34,FI,1704767858
467,naze,28.3667,129.4833,15.51,91,100,2.5,JP,1704767858
468,ajuterique,14.3833,-87.7,19.09,75,0,0.85,HN,1704767858
469,kerikeri,-35.2268,173.9474,23.28,76,1,0.89,NZ,1704767858
470,rabak,13.1809,32.74,22.96,31,15,4.02,SD,1704767859
471,batyrevo,55.0675,47.6111,-17.01,90,100,4.6,RU,1704767859
472,kingscliff,-28.2667,153.5667,26.89,78,40,3.09,AU,1704767859
473,i-n-salah,27.1935,2.4607,12.8,25,0,4.06,DZ,1704767859
474,dengzhou,37.8086,120.7508,3.33,66,100,4.54,CN,1704767860
475,rikaze,29.25,88.8833,-0.41,12,0,0.12,CN,1704767860
476,sao gabriel da cachoeira,-0.1303,-67.0892,24.15,87,88,0.89,BR,1704767860
477,pangody,65.85,74.4859,-20.36,98,100,5.12,RU,1704767861
478,la foa,-21.7108,165.8276,27.84,69,100,2.47,NC,1704767861
479,el amria,35.5244,-1.0158,7.9,65,86,0.73,DZ,1704767861
480,goba,7.0167,39.9833,8.06,77,27,1.62,ET,1704767862
481,djibo,14.1022,-1.6306,21.97,14,2,4.0,BF,1704767862
482,padang,-0.9492,100.3543,28.03,82,96,1.74,ID,1704767862
483,fengxiang,47.5833,130.8333,-16.04,72,86,5.02,CN,1704767862
484,durango,24.8333,-104.8333,9.81,35,82,7.17,MX,1704767779
485,cameta,-2.2444,-49.4958,25.05,91,100,2.01,BR,1704767863
486,seoni,22.0833,79.5333,19.31,58,0,1.49,IN,1704767863
487,turpan,42.9333,89.1667,-1.29,53,5,0.39,CN,1704767864
488,callaway,30.153,-85.5699,14.97,91,100,10.8,US,1704767864
489,inirida,3.8653,-67.9239,24.6,79,57,1.1,CO,1704767864
490,rabo de peixe,37.8,-25.5833,17.77,99,20,4.12,PT,1704767865
491,kotido,2.9806,34.1331,22.64,49,63,2.61,UG,1704767865
492,birjand,32.8663,59.2211,-4.74,39,0,3.09,IR,1704767865
493,plastun,44.7561,136.2939,-7.23,47,5,6.13,RU,1704767865
494,tamanrasset,22.785,5.5228,10.95,16,0,3.6,DZ,1704767866
495,sokoni,-6.4333,39.55,27.81,76,27,6.18,TZ,1704767866
496,governador valadares,-18.8511,-41.9494,22.97,93,100,0.78,BR,1704767866
497,pacific grove,36.6177,-121.9166,10.82,77,0,0.45,US,1704767866
498,paka,4.6374,103.4368,28.96,79,40,3.09,MY,1704767867
499,mili,6.0815,171.735,27.37,75,94,9.13,MH,1704767867
500,prado,-17.3411,-39.2208,24.25,93,96,2.76,BR,1704767867
501,ilebo,-4.3167,20.5833,21.5,94,100,0.11,CD,1704767867
502,tazacorte,28.629,-17.9293,21.75,60,0,4.12,ES,1704767868
503,fada,9.5667,8.3,18.43,11,0,1.99,NG,1704767868
504,ad dilam,23.9915,47.1627,9.23,40,0,1.0,SA,1704767868
505,pokrovsk,48.282,37.1758,-11.1,90,100,5.8,UA,1704767869
506,ploneour-lanvern,47.9,-4.2833,-1.82,74,100,3.6,FR,1704767869
507,santa ana,33.7456,-117.8678,14.01,40,0,2.06,US,1704767668
508,auki,-8.7676,160.7034,29.02,75,100,1.67,SB,1704767869
509,smithers,54.7804,-127.1743,-4.82,100,100,1.03,CA,1704767870
510,mana,5.6592,-53.7767,24.89,90,75,3.47,GF,1704767870
511,hopelchen,19.7667,-89.85,24.87,68,64,3.81,MX,1704767870
512,trancas,-26.2314,-65.2803,22.62,85,82,1.06,AR,1704767870
513,fortaleza,-3.7227,-38.5247,28.45,78,40,3.09,BR,1704767871
514,ghadamis,30.1337,9.5007,8.43,44,0,2.2,LY,1704767871
515,la rinconada,37.4873,-5.9826,9.1,89,100,2.06,ES,1704767871
516,ponta delgada,37.7333,-25.6667,18.44,72,20,4.12,PT,1704767871
517,andergrove,-21.0833,149.1833,30.36,78,100,3.46,AU,1704767871
518,safotu,-13.4513,-172.4018,28.28,79,83,1.09,WS,1704767872
519,vatutine,49.015,31.0621,-12.93,82,33,5.07,UA,1704767872
520,marataizes,-21.0433,-40.8244,24.5,93,100,3.34,BR,1704767872
521,port hedland,-20.3167,118.5667,38.03,27,1,3.6,AU,1704767872
522,acarau,-2.8856,-40.12,25.94,82,59,4.48,BR,1704767873
523,pervomayskoye,43.919,46.7102,2.44,92,95,1.86,RU,1704767873
524,dhuusamarreeb,5.535,46.3861,19.42,73,15,5.62,SO,1704767873
525,chemolgan,43.1897,76.5292,-1.19,78,100,0.99,KZ,1704767874
526,dul'durga,50.6761,113.5931,-16.79,80,16,1.85,RU,1704767874
527,whakatane,-37.9585,176.9854,26.05,75,40,2.24,NZ,1704767874
528,kolonia town,6.964,158.206,31.06,74,75,6.17,FM,1704767874
529,hovd,48.0056,91.6419,-10.08,78,100,1.13,MN,1704767875
530,ceeldheer,3.8488,47.1806,23.32,70,80,8.14,SO,1704767875
531,elk city,35.412,-99.4043,-0.62,86,75,14.4,US,1704767875
532,kalevala,65.2,31.1667,-9.39,96,100,1.79,RU,1704767875
533,rudbar,30.15,62.6,8.85,33,0,3.46,AF,1704767876
534,praya,14.9215,-23.5087,22.92,70,100,4.44,CV,1704767612
535,takoradi,4.8845,-1.7554,27.04,84,15,3.49,GH,1704767876
536,san cristobal,7.7669,-72.225,22.1,67,11,0.79,VE,1704767692
537,tuam,53.5167,-8.85,1.24,90,10,4.54,IE,1704767877
538,kalmunai,7.4167,81.8167,25.42,90,100,4.41,LK,1704767877
539,defuniak springs,30.721,-86.1152,14.65,94,100,8.23,US,1704767877
540,taltal,-25.4,-70.4833,18.79,82,33,0.94,CL,1704767877
541,patterson,37.4716,-121.1297,8.92,68,35,1.6,US,1704767877
542,manoharpur,27.3,75.95,13.22,63,98,2.33,IN,1704767878
543,wellawaya,6.7318,81.1018,23.25,96,100,2.07,LK,1704767878
544,mount pearl,47.5166,-52.7813,-2.04,90,100,11.32,CA,1704767679
545,kavieng,-2.5744,150.7967,29.07,74,99,3.48,PG,1704767878
546,cooper's town,26.8667,-77.5167,21.97,70,100,12.19,BS,1704767879
547,gobabis,-22.45,18.9667,19.11,74,100,6.8,NA,1704767879
548,west plains,36.7281,-91.8524,2.2,87,100,6.71,US,1704767879
549,zbarazh,49.6636,25.7762,-12.55,90,5,2.37,UA,1704767879
550,tengrela,10.4869,-6.4097,22.59,22,0,1.54,CI,1704767880
551,plettenberg bay,-34.0527,23.3716,16.82,90,1,1.75,ZA,1704767880
552,melekeok village,7.4957,134.6367,31.31,66,75,6.17,PW,1704767880
553,quellon,-43.1167,-73.6167,9.95,81,58,2.39,CL,1704767880
554,puerto armuelles,8.2833,-82.8667,28.99,80,63,1.73,PA,1704767881
555,rapar,23.5667,70.6333,18.14,40,0,8.14,IN,1704767881
556,nuuk,64.1835,-51.7216,-1.66,74,100,1.54,GL,1704767881
557,popondetta,-8.7537,148.2534,33.49,53,35,3.21,PG,1704767882
558,saint-leu,-21.15,55.2833,23.48,77,59,3.3,RE,1704767882
559,hobyo,5.3505,48.5268,23.84,75,28,9.15,SO,1704767882
560,enguera,38.9797,-0.6868,8.21,53,100,2.97,ES,1704767883
561,biharamulo,-2.6319,31.3089,17.41,84,100,0.74,TZ,1704767883
562,vilyuysk,63.7553,121.6247,-43.33,100,100,0.89,RU,1704767883
563,tut,37.7953,37.9161,5.89,78,100,2.16,TR,1704767883
564,kudahuvadhoo,2.6708,72.8944,27.73,76,94,5.16,MV,1704767884
565,koutiala,12.3917,-5.4642,23.66,17,0,3.77,ML,1704767884
566,kismayo,-0.3582,42.5454,26.13,76,74,7.43,SO,1704767884
567,sandnessjoen,66.0217,12.6316,5.29,97,100,8.62,NO,1704767884
568,vernon,50.2581,-119.2691,-0.77,85,100,1.03,CA,1704767735
569,peace river,56.2501,-117.286,-19.83,77,100,3.09,CA,1704767885
570,maragogi,-9.0122,-35.2225,26.24,83,48,3.9,BR,1704767885
571,gantiadi,43.3811,40.0794,11.09,93,100,3.0,GE,1704767887
572,pingnan,23.5543,110.3976,18.18,83,100,1.92,CN,1704767887
573,tari,12.4086,4.4914,19.91,15,0,4.06,NG,1704767888
